{
  "type": "FeatureCollection",
  "features": [
    {
      "type": "Feature",
      "geometry": {
        "type": "Point",
        "coordinates": [
          139.714018,
          35.248256
        ]
      },
      "properties": {
        "title": "横須賀市浦賀３丁目",
        "URL": "/2023/11/15/横須賀市浦賀３丁目"
      }
    },
    {
      "type": "Feature",
      "geometry": {
        "type": "Point",
        "coordinates": [
          139.5119,
          36.00456
        ]
      },
      "properties": {
        "title": "北本市石戸宿４丁目",
        "URL": "/2023/11/14/北本市石戸宿４丁目"
      }
    },
    {
      "type": "Feature",
      "geometry": {
        "type": "Point",
        "coordinates": [
          130.697938,
          32.903966
        ]
      },
      "properties": {
        "title": "熊本市北区植木町岩野",
        "URL": "/2023/11/11/熊本市北区植木町岩野"
      }
    },
    {
      "type": "Feature",
      "geometry": {
        "type": "Point",
        "coordinates": [
          139.955496,
          36.845198
        ]
      },
      "properties": {
        "title": "大田原市野崎２丁目",
        "URL": "/2023/11/03/大田原市野崎２丁目"
      }
    },
    {
      "type": "Feature",
      "geometry": {
        "type": "Point",
        "coordinates": [
          140.010206,
          35.757023
        ]
      },
      "properties": {
        "title": "千葉県鎌ケ谷市鎌ケ谷３",
        "URL": "/2023/10/31/千葉県鎌ケ谷市鎌ケ谷３"
      }
    },
    {
      "type": "Feature",
      "geometry": {
        "type": "Point",
        "coordinates": [
          135.816833,
          34.938806
        ]
      },
      "properties": {
        "title": "京都市伏見区日野谷寺町",
        "URL": "/2023/10/28/京都市伏見区日野谷寺町"
      }
    },
    {
      "type": "Feature",
      "geometry": {
        "type": "Point",
        "coordinates": [
          137.547858,
          34.928229
        ]
      },
      "properties": {
        "title": "新城市緑が丘３丁目",
        "URL": "/2023/10/26/新城市緑が丘３丁目"
      }
    },
    {
      "type": "Feature",
      "geometry": {
        "type": "Point",
        "coordinates": [
          137.159613,
          36.24449
        ]
      },
      "properties": {
        "title": "飛騨市古川町中野",
        "URL": "/2023/10/24/飛騨市古川町中野"
      }
    },
    {
      "type": "Feature",
      "geometry": {
        "type": "Point",
        "coordinates": [
          137.7999,
          34.67386
        ]
      },
      "properties": {
        "title": "磐田市白羽",
        "URL": "/2023/10/23/磐田市白羽"
      }
    },
    {
      "type": "Feature",
      "geometry": {
        "type": "Point",
        "coordinates": [
          138.64221,
          35.150723
        ]
      },
      "properties": {
        "title": "富士市松岡",
        "URL": "/2023/10/23/富士市松岡"
      }
    },
    {
      "type": "Feature",
      "geometry": {
        "type": "Point",
        "coordinates": [
          136.390537,
          34.452287
        ]
      },
      "properties": {
        "title": "松阪市飯南町粥見",
        "URL": "/2023/10/22/松阪市飯南町粥見"
      }
    },
    {
      "type": "Feature",
      "geometry": {
        "type": "Point",
        "coordinates": [
          132.61086,
          34.716006
        ]
      },
      "properties": {
        "title": "安芸高田市美土里町本郷",
        "URL": "/2023/10/20/安芸高田市美土里町本郷"
      }
    },
    {
      "type": "Feature",
      "geometry": {
        "type": "Point",
        "coordinates": [
          133.875698,
          34.535418
        ]
      },
      "properties": {
        "title": "岡山市南区迫川",
        "URL": "/2023/10/19/岡山市南区迫川"
      }
    },
    {
      "type": "Feature",
      "geometry": {
        "type": "Point",
        "coordinates": [
          139.577527,
          35.458008
        ]
      },
      "properties": {
        "title": "横浜市保土ケ谷区仏向町",
        "URL": "/2023/10/16/横浜市保土ケ谷区仏向町"
      }
    },
    {
      "type": "Feature",
      "geometry": {
        "type": "Point",
        "coordinates": [
          139.808643,
          35.97396
        ]
      },
      "properties": {
        "title": "埼玉県春日部市米崎130-9",
        "URL": "/2023/10/14/埼玉県春日部市米崎130-9"
      }
    },
    {
      "type": "Feature",
      "geometry": {
        "type": "Point",
        "coordinates": [
          135.871075,
          35.078186
        ]
      },
      "properties": {
        "title": "大津市坂本６丁目",
        "URL": "/2023/10/12/大津市坂本６丁目"
      }
    },
    {
      "type": "Feature",
      "geometry": {
        "type": "Point",
        "coordinates": [
          135.769277,
          34.654235
        ]
      },
      "properties": {
        "title": "大和郡山市城町",
        "URL": "/2023/10/12/大和郡山市城町"
      }
    },
    {
      "type": "Feature",
      "geometry": {
        "type": "Point",
        "coordinates": [
          140.308193,
          35.4054
        ]
      },
      "properties": {
        "title": "茂原市中の島町",
        "URL": "/2023/10/12/茂原市中の島町"
      }
    },
    {
      "type": "Feature",
      "geometry": {
        "type": "Point",
        "coordinates": [
          140.02481,
          35.76159
        ]
      },
      "properties": {
        "title": "船橋市咲が丘２丁目",
        "URL": "/2023/10/10/船橋市咲が丘２丁目"
      }
    },
    {
      "type": "Feature",
      "geometry": {
        "type": "Point",
        "coordinates": [
          138.953855,
          34.948932
        ]
      },
      "properties": {
        "title": "伊豆市佐野",
        "URL": "/2023/10/10/伊豆市佐野"
      }
    },
    {
      "type": "Feature",
      "geometry": {
        "type": "Point",
        "coordinates": [
          139.81957,
          35.975807
        ]
      },
      "properties": {
        "title": "埼玉県春日部市東中野",
        "URL": "/2023/10/10/埼玉県春日部市東中野"
      }
    },
    {
      "type": "Feature",
      "geometry": {
        "type": "Point",
        "coordinates": [
          138.108536,
          36.551069
        ]
      },
      "properties": {
        "title": "長野市篠ノ井塩崎",
        "URL": "/2023/10/09/長野市篠ノ井塩崎"
      }
    },
    {
      "type": "Feature",
      "geometry": {
        "type": "Point",
        "coordinates": [
          140.677856,
          35.729451
        ]
      },
      "properties": {
        "title": "旭市後草",
        "URL": "/2023/10/09/旭市後草"
      }
    },
    {
      "type": "Feature",
      "geometry": {
        "type": "Point",
        "coordinates": [
          141.240168,
          43.113241
        ]
      },
      "properties": {
        "title": "札幌市手稲区手稲本町五条１丁目",
        "URL": "/2023/10/08/札幌市手稲区手稲本町五条１丁目"
      }
    },
    {
      "type": "Feature",
      "geometry": {
        "type": "Point",
        "coordinates": [
          141.315588,
          42.987149
        ]
      },
      "properties": {
        "title": "札幌市南区南沢四条２丁目",
        "URL": "/2023/10/07/札幌市南区南沢四条２丁目"
      }
    },
    {
      "type": "Feature",
      "geometry": {
        "type": "Point",
        "coordinates": [
          135.544582,
          34.737246
        ]
      },
      "properties": {
        "title": "大阪府大阪市東淀川区豊里３",
        "URL": "/2023/10/07/大阪府大阪市東淀川区豊里３"
      }
    }
  ]
}